{
"type": "FeatureCollection",
"name": "SNAP_Store_Locations",
"crs": { "type": "name", "properties": { "name": "urn:ogc:def:crs:OGC:1.3:CRS84" } },
"features": [
{ "type": "Feature", "properties": { "Store_Name": "QUICK CHEK FOOD STORES 039", "Address": "195 Main Ave", "Address_Line__2": null, "City": "Passaic", "State": "NJ", "Zip5": "07055", "Zip4": "5402", "County": "PASSAIC", "Longitude": -74.127686, "Latitude": 40.845745, "ObjectId": 6166 }, "geometry": { "type": "Point", "coordinates": [ -74.127686, 40.845745 ] } },
{ "type": "Feature", "properties": { "Store_Name": "Fancy Fish", "Address": "32 Central Ave", "Address_Line__2": null, "City": "Passaic", "State": "NJ", "Zip5": "07055", "Zip4": "8410", "County": "PASSAIC", "Longitude": -74.128098, "Latitude": 40.864117, "ObjectId": 6176 }, "geometry": { "type": "Point", "coordinates": [ -74.128098, 40.864117 ] } },
{ "type": "Feature", "properties": { "Store_Name": "A & E Citric Associates", "Address": "181 Central Ave", "Address_Line__2": null, "City": "Passaic", "State": "NJ", "Zip5": "07055", "Zip4": "8505", "County": "PASSAIC", "Longitude": -74.131088, "Latitude": 40.868805, "ObjectId": 6182 }, "geometry": { "type": "Point", "coordinates": [ -74.131088, 40.868805 ] } },
{ "type": "Feature", "properties": { "Store_Name": "SHOP RITE", "Address": "503 PAULISON AVE", "Address_Line__2": null, "City": "PASSAIC", "State": "NJ", "Zip5": "07055", "Zip4": null, "County": "PASSAIC", "Longitude": -74.139732, "Latitude": 40.862659, "ObjectId": 6190 }, "geometry": { "type": "Point", "coordinates": [ -74.139732, 40.862659 ] } },
{ "type": "Feature", "properties": { "Store_Name": "JSK Food Market", "Address": "193 Monroe St", "Address_Line__2": null, "City": "Passaic", "State": "NJ", "Zip5": "07055", "Zip4": "6525", "County": "PASSAIC", "Longitude": -74.12175, "Latitude": 40.866722, "ObjectId": 6296 }, "geometry": { "type": "Point", "coordinates": [ -74.12175, 40.866722 ] } },
{ "type": "Feature", "properties": { "Store_Name": "161 T & j FOOD CORPORATION", "Address": "161 Jefferson St", "Address_Line__2": null, "City": "Passaic", "State": "NJ", "Zip5": "07055", "Zip4": "5132", "County": "PASSAIC", "Longitude": -74.124672, "Latitude": 40.862465, "ObjectId": 6301 }, "geometry": { "type": "Point", "coordinates": [ -74.124672, 40.862465 ] } },
{ "type": "Feature", "properties": { "Store_Name": "EL BODEGON", "Address": "119-121 Broadway", "Address_Line__2": null, "City": "Passaic", "State": "NJ", "Zip5": "07055", "Zip4": "3901", "County": "PASSAIC", "Longitude": -74.130173, "Latitude": 40.858944, "ObjectId": 6302 }, "geometry": { "type": "Point", "coordinates": [ -74.130173, 40.858944 ] } },
{ "type": "Feature", "properties": { "Store_Name": "MAC SUPERMARKET", "Address": "61 FOURTH ST", "Address_Line__2": null, "City": "PASSAIC", "State": "NJ", "Zip5": "07055", "Zip4": null, "County": "PASSAIC", "Longitude": -74.114586, "Latitude": 40.863407, "ObjectId": 6308 }, "geometry": { "type": "Point", "coordinates": [ -74.114586, 40.863407 ] } },
{ "type": "Feature", "properties": { "Store_Name": "Walgreens 19184", "Address": "116 Broadway", "Address_Line__2": null, "City": "Passaic", "State": "NJ", "Zip5": "07055", "Zip4": "3905", "County": "PASSAIC", "Longitude": -74.130348, "Latitude": 40.858986, "ObjectId": 6314 }, "geometry": { "type": "Point", "coordinates": [ -74.130348, 40.858986 ] } },
{ "type": "Feature", "properties": { "Store_Name": "Walgreens 5332", "Address": "101 President St", "Address_Line__2": null, "City": "Passaic", "State": "NJ", "Zip5": "07055", "Zip4": "7209", "County": "PASSAIC", "Longitude": -74.122124, "Latitude": 40.87355, "ObjectId": 6411 }, "geometry": { "type": "Point", "coordinates": [ -74.122124, 40.87355 ] } },
{ "type": "Feature", "properties": { "Store_Name": "US Poultry", "Address": "281 Oak St", "Address_Line__2": null, "City": "Passaic", "State": "NJ", "Zip5": "07055", "Zip4": "4203", "County": "PASSAIC", "Longitude": -74.131676, "Latitude": 40.864735, "ObjectId": 6415 }, "geometry": { "type": "Point", "coordinates": [ -74.131676, 40.864735 ] } },
{ "type": "Feature", "properties": { "Store_Name": "A & C SUPERMARKET", "Address": "170 Market St", "Address_Line__2": null, "City": "Passaic", "State": "NJ", "Zip5": "07055", "Zip4": "7702", "County": "PASSAIC", "Longitude": -74.117073, "Latitude": 40.867485, "ObjectId": 6421 }, "geometry": { "type": "Point", "coordinates": [ -74.117073, 40.867485 ] } },
{ "type": "Feature", "properties": { "Store_Name": "El Paraiso Mexicano Mini Market", "Address": "108 President St", "Address_Line__2": null, "City": "Passaic", "State": "NJ", "Zip5": "07055", "Zip4": "6932", "County": "PASSAIC", "Longitude": -74.122986, "Latitude": 40.873531, "ObjectId": 41509 }, "geometry": { "type": "Point", "coordinates": [ -74.122986, 40.873531 ] } },
{ "type": "Feature", "properties": { "Store_Name": "Los Hermanos Mini Market", "Address": "106 Passaic St", "Address_Line__2": null, "City": "Passaic", "State": "NJ", "Zip5": "07055", "Zip4": "8070", "County": "PASSAIC", "Longitude": -74.112686, "Latitude": 40.862629, "ObjectId": 44374 }, "geometry": { "type": "Point", "coordinates": [ -74.112686, 40.862629 ] } },
{ "type": "Feature", "properties": { "Store_Name": "7-eleven Store #41739a", "Address": "11-13 Central Ave", "Address_Line__2": null, "City": "Passaic", "State": "NJ", "Zip5": "07055", "Zip4": "8409", "County": "PASSAIC", "Longitude": -74.127884, "Latitude": 40.863312, "ObjectId": 174531 }, "geometry": { "type": "Point", "coordinates": [ -74.127884, 40.863312 ] } },
{ "type": "Feature", "properties": { "Store_Name": "Little Mexico Ii 1", "Address": "36 Broadway", "Address_Line__2": null, "City": "Passaic", "State": "NJ", "Zip5": "07055", "Zip4": "5006", "County": "PASSAIC", "Longitude": -74.127693, "Latitude": 40.860405, "ObjectId": 220825 }, "geometry": { "type": "Point", "coordinates": [ -74.127693, 40.860405 ] } },
{ "type": "Feature", "properties": { "Store_Name": "JF Mini Market", "Address": "187 Parker Ave", "Address_Line__2": null, "City": "Passaic", "State": "NJ", "Zip5": "07055", "Zip4": "7267", "County": "PASSAIC", "Longitude": -74.123047, "Latitude": 40.874073, "ObjectId": 220856 }, "geometry": { "type": "Point", "coordinates": [ -74.123047, 40.874073 ] } },
{ "type": "Feature", "properties": { "Store_Name": "Ingrid Grocery", "Address": "274 Oak St", "Address_Line__2": null, "City": "Passaic", "State": "NJ", "Zip5": "07055", "Zip4": "4221", "County": "PASSAIC", "Longitude": -74.131927, "Latitude": 40.8652, "ObjectId": 227069 }, "geometry": { "type": "Point", "coordinates": [ -74.131927, 40.8652 ] } },
{ "type": "Feature", "properties": { "Store_Name": "El Primo Mini Market", "Address": "148 Passaic St", "Address_Line__2": null, "City": "Passaic", "State": "NJ", "Zip5": "07055", "Zip4": "7319", "County": "PASSAIC", "Longitude": -74.114838, "Latitude": 40.862453, "ObjectId": 232910 }, "geometry": { "type": "Point", "coordinates": [ -74.114838, 40.862453 ] } },
{ "type": "Feature", "properties": { "Store_Name": "El Mercado De La Ocho", "Address": "272 8th St", "Address_Line__2": null, "City": "Passaic", "State": "NJ", "Zip5": "07055", "Zip4": "8314", "County": "PASSAIC", "Longitude": -74.110748, "Latitude": 40.863449, "ObjectId": 232915 }, "geometry": { "type": "Point", "coordinates": [ -74.110748, 40.863449 ] } },
{ "type": "Feature", "properties": { "Store_Name": "KOSHER KONNECTION INC", "Address": "200 Main Ave", "Address_Line__2": null, "City": "Passaic", "State": "NJ", "Zip5": "07055", "Zip4": "5408", "County": "PASSAIC", "Longitude": -74.127335, "Latitude": 40.845665, "ObjectId": 232920 }, "geometry": { "type": "Point", "coordinates": [ -74.127335, 40.845665 ] } },
{ "type": "Feature", "properties": { "Store_Name": "La Nueva Era Supermarket Llc ", "Address": "380 Monroe St", "Address_Line__2": null, "City": "Passaic", "State": "NJ", "Zip5": "07055", "Zip4": "4146", "County": "PASSAIC", "Longitude": -74.131477, "Latitude": 40.863541, "ObjectId": 232925 }, "geometry": { "type": "Point", "coordinates": [ -74.131477, 40.863541 ] } },
{ "type": "Feature", "properties": { "Store_Name": "Carnes Don Beto", "Address": "62 1st St", "Address_Line__2": null, "City": "Passaic", "State": "NJ", "Zip5": "07055", "Zip4": "6404", "County": "PASSAIC", "Longitude": -74.117149, "Latitude": 40.863216, "ObjectId": 232938 }, "geometry": { "type": "Point", "coordinates": [ -74.117149, 40.863216 ] } },
{ "type": "Feature", "properties": { "Store_Name": "La Guadalupana Deli & Grocery Llc", "Address": "222 3rd St", "Address_Line__2": null, "City": "Passaic", "State": "NJ", "Zip5": "07055", "Zip4": "7822", "County": "PASSAIC", "Longitude": -74.116425, "Latitude": 40.869541, "ObjectId": 232943 }, "geometry": { "type": "Point", "coordinates": [ -74.116425, 40.869541 ] } },
{ "type": "Feature", "properties": { "Store_Name": "Gabriellas Grocery Llc", "Address": "154 Hope Ave", "Address_Line__2": null, "City": "Passaic", "State": "NJ", "Zip5": "07055", "Zip4": "6718", "County": "PASSAIC", "Longitude": -74.123154, "Latitude": 40.868633, "ObjectId": 232947 }, "geometry": { "type": "Point", "coordinates": [ -74.123154, 40.868633 ] } },
{ "type": "Feature", "properties": { "Store_Name": "F & L Grocery & Deli", "Address": "133 Parker Ave", "Address_Line__2": null, "City": "Passaic", "State": "NJ", "Zip5": "07055", "Zip4": "7102", "County": "PASSAIC", "Longitude": -74.122337, "Latitude": 40.872246, "ObjectId": 232951 }, "geometry": { "type": "Point", "coordinates": [ -74.122337, 40.872246 ] } },
{ "type": "Feature", "properties": { "Store_Name": "Lizardo Mini Market Llc", "Address": "104 Passaic St", "Address_Line__2": null, "City": "Passaic", "State": "NJ", "Zip5": "07055", "Zip4": "8007", "County": "PASSAIC", "Longitude": -74.112389, "Latitude": 40.862652, "ObjectId": 232956 }, "geometry": { "type": "Point", "coordinates": [ -74.112389, 40.862652 ] } },
{ "type": "Feature", "properties": { "Store_Name": "Mi Placita Grocery Store", "Address": "204 Dayton Ave", "Address_Line__2": null, "City": "Passaic", "State": "NJ", "Zip5": "07055", "Zip4": "7221", "County": "PASSAIC", "Longitude": -74.122078, "Latitude": 40.874592, "ObjectId": 232960 }, "geometry": { "type": "Point", "coordinates": [ -74.122078, 40.874592 ] } },
{ "type": "Feature", "properties": { "Store_Name": "Chilitos Mexican Minimarket Llc", "Address": "98 Van Winkle Ave", "Address_Line__2": null, "City": "Passaic", "State": "NJ", "Zip5": "07055", "Zip4": "6813", "County": "PASSAIC", "Longitude": -74.124779, "Latitude": 40.873829, "ObjectId": 232964 }, "geometry": { "type": "Point", "coordinates": [ -74.124779, 40.873829 ] } },
{ "type": "Feature", "properties": { "Store_Name": "Omar Enterprise Corp", "Address": "126 Hope Ave", "Address_Line__2": null, "City": "Passaic", "State": "NJ", "Zip5": "07055", "Zip4": "6605", "County": "PASSAIC", "Longitude": -74.122757, "Latitude": 40.867661, "ObjectId": 232967 }, "geometry": { "type": "Point", "coordinates": [ -74.122757, 40.867661 ] } },
{ "type": "Feature", "properties": { "Store_Name": "Speedy Mart", "Address": "80-86 Broadway", "Address_Line__2": "1-b", "City": "Passaic", "State": "NJ", "Zip5": "07055", "Zip4": null, "County": "PASSAIC", "Longitude": -74.129448, "Latitude": 40.859509, "ObjectId": 232975 }, "geometry": { "type": "Point", "coordinates": [ -74.129448, 40.859509 ] } },
{ "type": "Feature", "properties": { "Store_Name": "City Fresh Market", "Address": "55 Broadway", "Address_Line__2": null, "City": "Passaic", "State": "NJ", "Zip5": "07055", "Zip4": "5003", "County": "PASSAIC", "Longitude": -74.128654, "Latitude": 40.859642, "ObjectId": 233073 }, "geometry": { "type": "Point", "coordinates": [ -74.128654, 40.859642 ] } },
{ "type": "Feature", "properties": { "Store_Name": "R&r Mini Market & Deli Llc", "Address": "71 Gregory Ave", "Address_Line__2": null, "City": "Passaic", "State": "NJ", "Zip5": "07055", "Zip4": "4803", "County": "PASSAIC", "Longitude": -74.123367, "Latitude": 40.855362, "ObjectId": 233074 }, "geometry": { "type": "Point", "coordinates": [ -74.123367, 40.855362 ] } },
{ "type": "Feature", "properties": { "Store_Name": "Plaza Mexico", "Address": "297 Monroe St", "Address_Line__2": "Ste 1", "City": "Passaic", "State": "NJ", "Zip5": "07055", "Zip4": "5293", "County": "PASSAIC", "Longitude": -74.126793, "Latitude": 40.864624, "ObjectId": 233075 }, "geometry": { "type": "Point", "coordinates": [ -74.126793, 40.864624 ] } },
{ "type": "Feature", "properties": { "Store_Name": "KB FOOD PLAZA", "Address": "924 Main Ave", "Address_Line__2": null, "City": "Passaic", "State": "NJ", "Zip5": "07055", "Zip4": "8536", "County": "PASSAIC", "Longitude": -74.133461, "Latitude": 40.868824, "ObjectId": 233076 }, "geometry": { "type": "Point", "coordinates": [ -74.133461, 40.868824 ] } },
{ "type": "Feature", "properties": { "Store_Name": "DOLLARTREE 7958", "Address": "514 Van Houten Ave", "Address_Line__2": null, "City": "Passaic", "State": "NJ", "Zip5": "07055", "Zip4": "2008", "County": "PASSAIC", "Longitude": -74.143974, "Latitude": 40.855808, "ObjectId": 233077 }, "geometry": { "type": "Point", "coordinates": [ -74.143974, 40.855808 ] } },
{ "type": "Feature", "properties": { "Store_Name": "Dollar General 20570", "Address": "36 Central Ave", "Address_Line__2": null, "City": "Passaic", "State": "NJ", "Zip5": "07055", "Zip4": "8412", "County": "PASSAIC", "Longitude": -74.128471, "Latitude": 40.864632, "ObjectId": 233080 }, "geometry": { "type": "Point", "coordinates": [ -74.128471, 40.864632 ] } },
{ "type": "Feature", "properties": { "Store_Name": "J & J Store", "Address": "44 Aspen Pl", "Address_Line__2": null, "City": "Passaic", "State": "NJ", "Zip5": "07055", "Zip4": "5809", "County": "PASSAIC", "Longitude": -74.121223, "Latitude": 40.860573, "ObjectId": 233081 }, "geometry": { "type": "Point", "coordinates": [ -74.121223, 40.860573 ] } },
{ "type": "Feature", "properties": { "Store_Name": "Isaias Mini Market", "Address": "63 Columbia Ave", "Address_Line__2": null, "City": "Passaic", "State": "NJ", "Zip5": "07055", "Zip4": "6405", "County": "PASSAIC", "Longitude": -74.121887, "Latitude": 40.863243, "ObjectId": 233082 }, "geometry": { "type": "Point", "coordinates": [ -74.121887, 40.863243 ] } },
{ "type": "Feature", "properties": { "Store_Name": "La Colmena Meat Market Llc", "Address": "460 Monroe St", "Address_Line__2": null, "City": "Passaic", "State": "NJ", "Zip5": "07055", "Zip4": "3079", "County": "PASSAIC", "Longitude": -74.134682, "Latitude": 40.862545, "ObjectId": 233083 }, "geometry": { "type": "Point", "coordinates": [ -74.134682, 40.862545 ] } },
{ "type": "Feature", "properties": { "Store_Name": "Family Dollar 12416", "Address": "514 Van Houten Ave", "Address_Line__2": null, "City": "Passaic", "State": "NJ", "Zip5": "07055", "Zip4": "2008", "County": "PASSAIC", "Longitude": -74.143974, "Latitude": 40.855808, "ObjectId": 233084 }, "geometry": { "type": "Point", "coordinates": [ -74.143974, 40.855808 ] } },
{ "type": "Feature", "properties": { "Store_Name": "Passaic Petroleum Llc 36", "Address": "39 Monroe St", "Address_Line__2": null, "City": "Passaic", "State": "NJ", "Zip5": "07055", "Zip4": "7705", "County": "PASSAIC", "Longitude": -74.11689, "Latitude": 40.868244, "ObjectId": 233085 }, "geometry": { "type": "Point", "coordinates": [ -74.11689, 40.868244 ] } },
{ "type": "Feature", "properties": { "Store_Name": "El Mega Supermarket", "Address": "43 Market St", "Address_Line__2": null, "City": "Passaic", "State": "NJ", "Zip5": "07055", "Zip4": "7403", "County": "PASSAIC", "Longitude": -74.116379, "Latitude": 40.862652, "ObjectId": 233086 }, "geometry": { "type": "Point", "coordinates": [ -74.116379, 40.862652 ] } },
{ "type": "Feature", "properties": { "Store_Name": "Ranivenca Distribution Inc", "Address": "359 Monroe St", "Address_Line__2": null, "City": "Passaic", "State": "NJ", "Zip5": "07055", "Zip4": "4163", "County": "PASSAIC", "Longitude": -74.13028, "Latitude": 40.863556, "ObjectId": 233087 }, "geometry": { "type": "Point", "coordinates": [ -74.13028, 40.863556 ] } },
{ "type": "Feature", "properties": { "Store_Name": "La Dominicana Grocery Llc", "Address": "181 Hope Ave", "Address_Line__2": null, "City": "Passaic", "State": "NJ", "Zip5": "07055", "Zip4": "6707", "County": "PASSAIC", "Longitude": -74.124252, "Latitude": 40.869568, "ObjectId": 233089 }, "geometry": { "type": "Point", "coordinates": [ -74.124252, 40.869568 ] } },
{ "type": "Feature", "properties": { "Store_Name": "Filpo's Grocery Llc", "Address": "220 Howe Ave", "Address_Line__2": null, "City": "Passaic", "State": "NJ", "Zip5": "07055", "Zip4": "2814", "County": "PASSAIC", "Longitude": -74.135208, "Latitude": 40.858768, "ObjectId": 233090 }, "geometry": { "type": "Point", "coordinates": [ -74.135208, 40.858768 ] } },
{ "type": "Feature", "properties": { "Store_Name": "DOLLARTREE 7382", "Address": "90 Dayton Ave", "Address_Line__2": "Bld.19 Unit R-101", "City": "Passaic", "State": "NJ", "Zip5": "07055", "Zip4": null, "County": "PASSAIC", "Longitude": -74.119095, "Latitude": 40.871498, "ObjectId": 233091 }, "geometry": { "type": "Point", "coordinates": [ -74.119095, 40.871498 ] } },
{ "type": "Feature", "properties": { "Store_Name": "Mini Market Ana Mria Llc", "Address": "286 Main Ave", "Address_Line__2": null, "City": "Passaic", "State": "NJ", "Zip5": "07055", "Zip4": "5628", "County": "PASSAIC", "Longitude": -74.124962, "Latitude": 40.848465, "ObjectId": 233092 }, "geometry": { "type": "Point", "coordinates": [ -74.124962, 40.848465 ] } },
{ "type": "Feature", "properties": { "Store_Name": "Rahma's Poultry", "Address": "132 Passaic St", "Address_Line__2": null, "City": "Passaic", "State": "NJ", "Zip5": "07055", "Zip4": "7308", "County": "PASSAIC", "Longitude": -74.11396, "Latitude": 40.862377, "ObjectId": 233093 }, "geometry": { "type": "Point", "coordinates": [ -74.11396, 40.862377 ] } },
{ "type": "Feature", "properties": { "Store_Name": "Tehuit Minimarket", "Address": "70 Market St", "Address_Line__2": null, "City": "Passaic", "State": "NJ", "Zip5": "07055", "Zip4": "7533", "County": "PASSAIC", "Longitude": -74.11647, "Latitude": 40.863663, "ObjectId": 233852 }, "geometry": { "type": "Point", "coordinates": [ -74.11647, 40.863663 ] } },
{ "type": "Feature", "properties": { "Store_Name": "Morelos Minimarket", "Address": "265B Passaic St", "Address_Line__2": null, "City": "Passaic", "State": "NJ", "Zip5": "07055", "Zip4": "5812", "County": "PASSAIC", "Longitude": -74.120903, "Latitude": 40.861462, "ObjectId": 233856 }, "geometry": { "type": "Point", "coordinates": [ -74.120903, 40.861462 ] } },
{ "type": "Feature", "properties": { "Store_Name": "JARABACOA MINI MARKET", "Address": "381 Broadway", "Address_Line__2": null, "City": "Passaic", "State": "NJ", "Zip5": "07055", "Zip4": "2093", "County": "PASSAIC", "Longitude": -74.138763, "Latitude": 40.854008, "ObjectId": 233860 }, "geometry": { "type": "Point", "coordinates": [ -74.138763, 40.854008 ] } },
{ "type": "Feature", "properties": { "Store_Name": "Dona Chivis Llc", "Address": "24 Myrtle Ave", "Address_Line__2": null, "City": "Passaic", "State": "NJ", "Zip5": "07055", "Zip4": "2923", "County": "PASSAIC", "Longitude": -74.13253, "Latitude": 40.861828, "ObjectId": 233864 }, "geometry": { "type": "Point", "coordinates": [ -74.13253, 40.861828 ] } },
{ "type": "Feature", "properties": { "Store_Name": "Palmares Grocery", "Address": "46 Quincy St", "Address_Line__2": null, "City": "Passaic", "State": "NJ", "Zip5": "07055", "Zip4": "6041", "County": "PASSAIC", "Longitude": -74.122711, "Latitude": 40.867256, "ObjectId": 233868 }, "geometry": { "type": "Point", "coordinates": [ -74.122711, 40.867256 ] } },
{ "type": "Feature", "properties": { "Store_Name": "A & I Grocery", "Address": "180 Myrtle Ave", "Address_Line__2": null, "City": "Passaic", "State": "NJ", "Zip5": "07055", "Zip4": "3100", "County": "PASSAIC", "Longitude": -74.134529, "Latitude": 40.867855, "ObjectId": 233871 }, "geometry": { "type": "Point", "coordinates": [ -74.134529, 40.867855 ] } },
{ "type": "Feature", "properties": { "Store_Name": "Jk Los Poblanos", "Address": "106 Market St", "Address_Line__2": null, "City": "Passaic", "State": "NJ", "Zip5": "07055", "Zip4": "7625", "County": "PASSAIC", "Longitude": -74.116684, "Latitude": 40.865055, "ObjectId": 233875 }, "geometry": { "type": "Point", "coordinates": [ -74.116684, 40.865055 ] } },
{ "type": "Feature", "properties": { "Store_Name": "Quality Food Market III", "Address": "565 Main Ave", "Address_Line__2": null, "City": "Passaic", "State": "NJ", "Zip5": "07055", "Zip4": "4957", "County": "PASSAIC", "Longitude": -74.12413, "Latitude": 40.858707, "ObjectId": 233879 }, "geometry": { "type": "Point", "coordinates": [ -74.12413, 40.858707 ] } },
{ "type": "Feature", "properties": { "Store_Name": "Palmares Grocery And Deli Incorporated", "Address": "182 Sherman St", "Address_Line__2": null, "City": "Passaic", "State": "NJ", "Zip5": "07055", "Zip4": "8408", "County": "PASSAIC", "Longitude": -74.129456, "Latitude": 40.867519, "ObjectId": 233883 }, "geometry": { "type": "Point", "coordinates": [ -74.129456, 40.867519 ] } },
{ "type": "Feature", "properties": { "Store_Name": "Jandriel Grocery & Deli", "Address": "91 Sherman Street", "Address_Line__2": null, "City": "Passaic", "State": "NJ", "Zip5": "07055", "Zip4": null, "County": "PASSAIC", "Longitude": -74.125458, "Latitude": 40.868713, "ObjectId": 233887 }, "geometry": { "type": "Point", "coordinates": [ -74.125458, 40.868713 ] } },
{ "type": "Feature", "properties": { "Store_Name": "Sea Blue Fish Market Inc", "Address": "63 Westervelt Pl", "Address_Line__2": null, "City": "Passaic", "State": "NJ", "Zip5": "07055", "Zip4": "5619", "County": "PASSAIC", "Longitude": -74.124611, "Latitude": 40.848579, "ObjectId": 233891 }, "geometry": { "type": "Point", "coordinates": [ -74.124611, 40.848579 ] } },
{ "type": "Feature", "properties": { "Store_Name": "Su Nueva Esquina Meat Market", "Address": "85 Myrtle Ave", "Address_Line__2": null, "City": "Passaic", "State": "NJ", "Zip5": "07055", "Zip4": "3022", "County": "PASSAIC", "Longitude": -74.133659, "Latitude": 40.864147, "ObjectId": 233895 }, "geometry": { "type": "Point", "coordinates": [ -74.133659, 40.864147 ] } },
{ "type": "Feature", "properties": { "Store_Name": "Rosita De Olivo Minimarket Llc", "Address": "364 Monroe St", "Address_Line__2": null, "City": "Passaic", "State": "NJ", "Zip5": "07055", "Zip4": "4129", "County": "PASSAIC", "Longitude": -74.130516, "Latitude": 40.863605, "ObjectId": 233899 }, "geometry": { "type": "Point", "coordinates": [ -74.130516, 40.863605 ] } },
{ "type": "Feature", "properties": { "Store_Name": "Jeffrey Mini Market", "Address": "890 Main Ave", "Address_Line__2": null, "City": "Passaic", "State": "NJ", "Zip5": "07055", "Zip4": "8515", "County": "PASSAIC", "Longitude": -74.132477, "Latitude": 40.867783, "ObjectId": 233903 }, "geometry": { "type": "Point", "coordinates": [ -74.132477, 40.867783 ] } },
{ "type": "Feature", "properties": { "Store_Name": "Pol Store International Inc", "Address": "80 Passaic St", "Address_Line__2": null, "City": "Passaic", "State": "NJ", "Zip5": "07055", "Zip4": "8315", "County": "PASSAIC", "Longitude": -74.110977, "Latitude": 40.862648, "ObjectId": 233911 }, "geometry": { "type": "Point", "coordinates": [ -74.110977, 40.862648 ] } },
{ "type": "Feature", "properties": { "Store_Name": "Dualis Meat Market Inc", "Address": "269 Monroe St", "Address_Line__2": null, "City": "Passaic", "State": "NJ", "Zip5": "07055", "Zip4": "5209", "County": "PASSAIC", "Longitude": -74.125381, "Latitude": 40.865227, "ObjectId": 233915 }, "geometry": { "type": "Point", "coordinates": [ -74.125381, 40.865227 ] } },
{ "type": "Feature", "properties": { "Store_Name": "Bellavista Grocery Store Llc", "Address": "296 Broadway", "Address_Line__2": null, "City": "Passaic", "State": "NJ", "Zip5": "07055", "Zip4": "2734", "County": "PASSAIC", "Longitude": -74.136269, "Latitude": 40.855804, "ObjectId": 234234 }, "geometry": { "type": "Point", "coordinates": [ -74.136269, 40.855804 ] } },
{ "type": "Feature", "properties": { "Store_Name": "Amor Mini Market LLC", "Address": "177 Howe Ave", "Address_Line__2": "Ste A", "City": "Passaic", "State": "NJ", "Zip5": "07055", "Zip4": "2845", "County": "PASSAIC", "Longitude": -74.13427, "Latitude": 40.859455, "ObjectId": 234240 }, "geometry": { "type": "Point", "coordinates": [ -74.13427, 40.859455 ] } },
{ "type": "Feature", "properties": { "Store_Name": "Padilla Mini Market & Deli", "Address": "432 Monroe St", "Address_Line__2": null, "City": "Passaic", "State": "NJ", "Zip5": "07055", "Zip4": "3021", "County": "PASSAIC", "Longitude": -74.134102, "Latitude": 40.862701, "ObjectId": 234250 }, "geometry": { "type": "Point", "coordinates": [ -74.134102, 40.862701 ] } },
{ "type": "Feature", "properties": { "Store_Name": "Nilkanth LLC", "Address": "230 Main Ave", "Address_Line__2": null, "City": "Passaic", "State": "NJ", "Zip5": "07055", "Zip4": "5523", "County": "PASSAIC", "Longitude": -74.126572, "Latitude": 40.846828, "ObjectId": 234935 }, "geometry": { "type": "Point", "coordinates": [ -74.126572, 40.846828 ] } },
{ "type": "Feature", "properties": { "Store_Name": "Izucar Deli & Grocery", "Address": "132 Market St", "Address_Line__2": null, "City": "Passaic", "State": "NJ", "Zip5": "07055", "Zip4": "7623", "County": "PASSAIC", "Longitude": -74.116867, "Latitude": 40.866158, "ObjectId": 234940 }, "geometry": { "type": "Point", "coordinates": [ -74.116867, 40.866158 ] } },
{ "type": "Feature", "properties": { "Store_Name": "DONA CHELY GROCERY STORE", "Address": "96 Market St", "Address_Line__2": null, "City": "Passaic", "State": "NJ", "Zip5": "07055", "Zip4": "7640", "County": "PASSAIC", "Longitude": -74.116638, "Latitude": 40.864716, "ObjectId": 234945 }, "geometry": { "type": "Point", "coordinates": [ -74.116638, 40.864716 ] } },
{ "type": "Feature", "properties": { "Store_Name": "St Francis Way Food Corp/C-Town", "Address": "602 Main Ave", "Address_Line__2": null, "City": "Passaic", "State": "NJ", "Zip5": "07055", "Zip4": "4907", "County": "PASSAIC", "Longitude": -74.124359, "Latitude": 40.859444, "ObjectId": 234950 }, "geometry": { "type": "Point", "coordinates": [ -74.124359, 40.859444 ] } },
{ "type": "Feature", "properties": { "Store_Name": "Vela -Ber Market", "Address": "315 Monroe St", "Address_Line__2": null, "City": "Passaic", "State": "NJ", "Zip5": "07055", "Zip4": null, "County": "PASSAIC", "Longitude": -74.127533, "Latitude": 40.864296, "ObjectId": 234955 }, "geometry": { "type": "Point", "coordinates": [ -74.127533, 40.864296 ] } },
{ "type": "Feature", "properties": { "Store_Name": "Kelvin Mini Market Llc", "Address": "210 Harrison St", "Address_Line__2": null, "City": "Passaic", "State": "NJ", "Zip5": "07055", "Zip4": "6809", "County": "PASSAIC", "Longitude": -74.124451, "Latitude": 40.870247, "ObjectId": 234960 }, "geometry": { "type": "Point", "coordinates": [ -74.124451, 40.870247 ] } },
{ "type": "Feature", "properties": { "Store_Name": "Family Dollar 4314", "Address": "215 Washington Pl", "Address_Line__2": null, "City": "Passaic", "State": "NJ", "Zip5": "07055", "Zip4": "5136", "County": "PASSAIC", "Longitude": -74.125061, "Latitude": 40.861244, "ObjectId": 234965 }, "geometry": { "type": "Point", "coordinates": [ -74.125061, 40.861244 ] } },
{ "type": "Feature", "properties": { "Store_Name": "Mexico's Grocery And Imports, LLC", "Address": "198 Monroe St", "Address_Line__2": null, "City": "Passaic", "State": "NJ", "Zip5": "07055", "Zip4": "5949", "County": "PASSAIC", "Longitude": -74.122314, "Latitude": 40.866558, "ObjectId": 234969 }, "geometry": { "type": "Point", "coordinates": [ -74.122314, 40.866558 ] } },
{ "type": "Feature", "properties": { "Store_Name": "CVS Pharmacy 2724", "Address": "394 Van Houten Ave", "Address_Line__2": null, "City": "Passaic", "State": "NJ", "Zip5": "07055", "Zip4": "2640", "County": "PASSAIC", "Longitude": -74.139275, "Latitude": 40.853123, "ObjectId": 234972 }, "geometry": { "type": "Point", "coordinates": [ -74.139275, 40.853123 ] } },
{ "type": "Feature", "properties": { "Store_Name": "A1 Nutrition Store", "Address": "210 Main Ave", "Address_Line__2": null, "City": "Passaic", "State": "NJ", "Zip5": "07055", "Zip4": "5404", "County": "PASSAIC", "Longitude": -74.127083, "Latitude": 40.846237, "ObjectId": 234977 }, "geometry": { "type": "Point", "coordinates": [ -74.127083, 40.846237 ] } },
{ "type": "Feature", "properties": { "Store_Name": "K&k Rod Llc", "Address": "126 Hope Ave", "Address_Line__2": null, "City": "Passaic", "State": "NJ", "Zip5": "07055", "Zip4": "6605", "County": "PASSAIC", "Longitude": -74.122559, "Latitude": 40.867844, "ObjectId": 236166 }, "geometry": { "type": "Point", "coordinates": [ -74.122559, 40.867844 ] } },
{ "type": "Feature", "properties": { "Store_Name": "Plaza Mia Market", "Address": "25 Myrtle Ave", "Address_Line__2": null, "City": "Passaic", "State": "NJ", "Zip5": "07055", "Zip4": "2932", "County": "PASSAIC", "Longitude": -74.13269, "Latitude": 40.86166, "ObjectId": 236230 }, "geometry": { "type": "Point", "coordinates": [ -74.13269, 40.86166 ] } },
{ "type": "Feature", "properties": { "Store_Name": "El Especial Supermarket", "Address": "278 Monroe St", "Address_Line__2": null, "City": "Passaic", "State": "NJ", "Zip5": "07055", "Zip4": "5208", "County": "PASSAIC", "Longitude": -74.125671, "Latitude": 40.8652, "ObjectId": 236235 }, "geometry": { "type": "Point", "coordinates": [ -74.125671, 40.8652 ] } },
{ "type": "Feature", "properties": { "Store_Name": "P & M SUPERMARKET INC", "Address": "263 Monroe St", "Address_Line__2": null, "City": "Passaic", "State": "NJ", "Zip5": "07055", "Zip4": "5922", "County": "PASSAIC", "Longitude": -74.125053, "Latitude": 40.86533, "ObjectId": 236240 }, "geometry": { "type": "Point", "coordinates": [ -74.125053, 40.86533 ] } },
{ "type": "Feature", "properties": { "Store_Name": "Lizardo Mini Market Ii Llc", "Address": "127 Passaic St", "Address_Line__2": null, "City": "Passaic", "State": "NJ", "Zip5": "07055", "Zip4": "8066", "County": "PASSAIC", "Longitude": -74.113419, "Latitude": 40.862331, "ObjectId": 236244 }, "geometry": { "type": "Point", "coordinates": [ -74.113419, 40.862331 ] } },
{ "type": "Feature", "properties": { "Store_Name": "Evelyn Grocery", "Address": "144 President St", "Address_Line__2": null, "City": "Passaic", "State": "NJ", "Zip5": "07055", "Zip4": "6941", "County": "PASSAIC", "Longitude": -74.124329, "Latitude": 40.872772, "ObjectId": 236248 }, "geometry": { "type": "Point", "coordinates": [ -74.124329, 40.872772 ] } },
{ "type": "Feature", "properties": { "Store_Name": "Aisle One", "Address": "217 Brook Ave", "Address_Line__2": null, "City": "Passaic", "State": "NJ", "Zip5": "07055", "Zip4": "3357", "County": "PASSAIC", "Longitude": -74.134232, "Latitude": 40.8419, "ObjectId": 236252 }, "geometry": { "type": "Point", "coordinates": [ -74.134232, 40.8419 ] } },
{ "type": "Feature", "properties": { "Store_Name": "Patri Meat Market", "Address": "96-98 3rd St", "Address_Line__2": null, "City": "Passaic", "State": "NJ", "Zip5": "07055", "Zip4": "7683", "County": "PASSAIC", "Longitude": -74.115654, "Latitude": 40.864742, "ObjectId": 236256 }, "geometry": { "type": "Point", "coordinates": [ -74.115654, 40.864742 ] } },
{ "type": "Feature", "properties": { "Store_Name": "U&V Grill And Grocery", "Address": "261 Passaic St", "Address_Line__2": null, "City": "Passaic", "State": "NJ", "Zip5": "07055", "Zip4": "5893", "County": "PASSAIC", "Longitude": -74.120682, "Latitude": 40.861366, "ObjectId": 236258 }, "geometry": { "type": "Point", "coordinates": [ -74.120682, 40.861366 ] } },
{ "type": "Feature", "properties": { "Store_Name": "EL TEPEYAC GROCERY", "Address": "225 MONROE ST", "Address_Line__2": null, "City": "PASSAIC", "State": "NJ", "Zip5": "07055", "Zip4": null, "County": "PASSAIC", "Longitude": -74.123466, "Latitude": 40.866043, "ObjectId": 236265 }, "geometry": { "type": "Point", "coordinates": [ -74.123466, 40.866043 ] } },
{ "type": "Feature", "properties": { "Store_Name": "El Patron Grocery Deli Market Llc", "Address": "8 Myrtle Ave", "Address_Line__2": null, "City": "Passaic", "State": "NJ", "Zip5": "07055", "Zip4": "2934", "County": "PASSAIC", "Longitude": -74.132233, "Latitude": 40.861259, "ObjectId": 236266 }, "geometry": { "type": "Point", "coordinates": [ -74.132233, 40.861259 ] } },
{ "type": "Feature", "properties": { "Store_Name": "Mira Fruit Farm", "Address": "757 Main Ave", "Address_Line__2": null, "City": "Passaic", "State": "NJ", "Zip5": "07055", "Zip4": "8414", "County": "PASSAIC", "Longitude": -74.128807, "Latitude": 40.863621, "ObjectId": 236273 }, "geometry": { "type": "Point", "coordinates": [ -74.128807, 40.863621 ] } },
{ "type": "Feature", "properties": { "Store_Name": "El Ranchito Juice Bar", "Address": "82 Market St", "Address_Line__2": null, "City": "Passaic", "State": "NJ", "Zip5": "07055", "Zip4": "7505", "County": "PASSAIC", "Longitude": -74.116257, "Latitude": 40.864117, "ObjectId": 236274 }, "geometry": { "type": "Point", "coordinates": [ -74.116257, 40.864117 ] } },
{ "type": "Feature", "properties": { "Store_Name": "Cedenia Minimarket", "Address": "159 Passaic St", "Address_Line__2": null, "City": "Passaic", "State": "NJ", "Zip5": "07055", "Zip4": "7393", "County": "PASSAIC", "Longitude": -74.115227, "Latitude": 40.862171, "ObjectId": 236281 }, "geometry": { "type": "Point", "coordinates": [ -74.115227, 40.862171 ] } },
{ "type": "Feature", "properties": { "Store_Name": "D' Abreu Deli And Minimarket", "Address": "395 Monroe St", "Address_Line__2": null, "City": "Passaic", "State": "NJ", "Zip5": "07055", "Zip4": "4130", "County": "PASSAIC", "Longitude": -74.131851, "Latitude": 40.863014, "ObjectId": 236376 }, "geometry": { "type": "Point", "coordinates": [ -74.131851, 40.863014 ] } },
{ "type": "Feature", "properties": { "Store_Name": "Estelle Supermarket", "Address": "145 Passaic St", "Address_Line__2": null, "City": "Passaic", "State": "NJ", "Zip5": "07055", "Zip4": "7352", "County": "PASSAIC", "Longitude": -74.114494, "Latitude": 40.862076, "ObjectId": 236377 }, "geometry": { "type": "Point", "coordinates": [ -74.114494, 40.862076 ] } },
{ "type": "Feature", "properties": { "Store_Name": "San Jose Minimarket", "Address": "75 3rd St", "Address_Line__2": null, "City": "Passaic", "State": "NJ", "Zip5": "07055", "Zip4": "7534", "County": "PASSAIC", "Longitude": -74.115852, "Latitude": 40.863949, "ObjectId": 236380 }, "geometry": { "type": "Point", "coordinates": [ -74.115852, 40.863949 ] } },
{ "type": "Feature", "properties": { "Store_Name": "El Paisa Grocery And Deli", "Address": "125 3rd St", "Address_Line__2": null, "City": "Passaic", "State": "NJ", "Zip5": "07055", "Zip4": "7607", "County": "PASSAIC", "Longitude": -74.11615, "Latitude": 40.865765, "ObjectId": 236445 }, "geometry": { "type": "Point", "coordinates": [ -74.11615, 40.865765 ] } },
{ "type": "Feature", "properties": { "Store_Name": "D' Luz Deli And Grocery", "Address": "871 Main Ave", "Address_Line__2": null, "City": "Passaic", "State": "NJ", "Zip5": "07055", "Zip4": "8491", "County": "PASSAIC", "Longitude": -74.132103, "Latitude": 40.866951, "ObjectId": 236497 }, "geometry": { "type": "Point", "coordinates": [ -74.132103, 40.866951 ] } },
{ "type": "Feature", "properties": { "Store_Name": "Dani Gaby Grocery", "Address": "213 Burgess Pl", "Address_Line__2": null, "City": "Passaic", "State": "NJ", "Zip5": "07055", "Zip4": "3232", "County": "PASSAIC", "Longitude": -74.13887, "Latitude": 40.868473, "ObjectId": 246382 }, "geometry": { "type": "Point", "coordinates": [ -74.13887, 40.868473 ] } }
]
}
